{"stations": [{"location": {"longitude": -2.2234344, "latitude": 52.988355}, "prices": {"E5": 157.9, "E10": 143.9, "B7": 152.9}, "site_id": "gcqmmqhzw1r1", "postcode": "ST5 4AE", "address": "Clayton Road, Newcastle-Under-Lyme, STAFFORDSHIRE, ST5 4AE", "brand": "Esso"}, {"location": {"longitude": -0.64242099, "latitude": 51.477545}, "prices": {"E5": 161.9, "E10": 147.9, "B7": 156.9}, "site_id": "gcpsc7hnqtbj", "postcode": "SL4 4JW", "address": "Dedworth Road, Windsor, Berkshire, SL4 4JW", "brand": "Esso"}, {"location": {"longitude": -2.9579356, "latitude": 53.426991}, "prices": {"E10": 143.9, "B7": 153.9}, "site_id": "gcmzuwn4g0gr", "postcode": "L4 0UE", "address": "OAKFIELD ROAD, ANFIELD, Liverpool, Merseyside, L4 0UE", "brand": "Esso"}, {"location": {"longitude": -1.0595024, "latitude": 50.795997}, "prices": {"E5": 158.9, "SDV": 166.9, "E10": 144.9, "B7": 152.9}, "site_id": "gcp0zzhkpu1u", "postcode": "PO4 8PN", "address": "Milton Road, Southsea, HAMPSHIRE, PO4 8PN", "brand": "Esso"}, {"location": {"longitude": -1.7901333, "latitude": 53.636907}, "prices": {"E5": 156.9, "E10": 142.9, "B7": 152.9}, "site_id": "gcw9pk23wu5v", "postcode": "HD1 3QU", "address": "Lockwood Road, Huddersfield, WEST YORKSHIRE, HD1 3QU", "brand": "Esso"}, {"location": {"longitude": -0.78805353, "latitude": 50.828772}, "prices": {"E5": 157.9, "SDV": 166.9, "E10": 143.9, "B7": 152.9}, "site_id": "gcp3nj45j1be", "postcode": "PO19 8FH", "address": "A27 By-Pass Westbound, Chichester, WEST SUSSEX, PO19 8FH", "brand": "Esso"}, {"location": {"longitude": 0.69368668, "latitude": 51.082971}, "prices": {"E5": 157.9, "SDV": 168.9, "E10": 143.9, "B7": 154.9}, "site_id": "u106xg35u5fr", "postcode": "TN30 6DD", "address": "Ashford Road, ST MICHAELS, Tenterden, Kent, TN30 6DD", "brand": "Esso"}, {"location": {"longitude": -0.61775902, "latitude": 51.318068}, "prices": {"E5": 156.9, "SDV": 167.9, "E10": 142.9, "B7": 153.9}, "site_id": "gcpecynjmjjr", "postcode": "GU21 2PP", "address": "High Street, Knaphill, Surrey, GU21 2PP", "brand": "Esso"}, {"location": {"longitude": -1.3977372, "latitude": 54.900581}, "prices": {"SDV": 165.9, "E10": 142.9, "B7": 151.9}, "site_id": "gcz024q5n65d", "postcode": "SR2 7PD", "address": "Durham Road, Sunderland, Tyne and Wear, SR2 7PD", "brand": "Esso"}, {"location": {"longitude": -3.0405349, "latitude": 53.852972}, "prices": {"E5": 160.9, "SDV": 169.9, "E10": 146.9, "B7": 155.9}, "site_id": "gctf6g9uq3sg", "postcode": "FY2 0AJ", "address": "Devonshire Road, BISPHAM, Blackpool, Lancashire, FY2 0AJ", "brand": "Esso"}, {"location": {"longitude": -2.3446396, "latitude": 53.390337}, "prices": {"E10": 146.9, "B7": 156.9}, "site_id": "gcqrdxktmbjv", "postcode": "WA15 8EX", "address": "Stockport Road, Altrincham, Cheshire, WA15 8EX", "brand": "Esso"}, {"location": {"longitude": -2.6565157, "latitude": 53.554509}, "prices": {"E5": 158.9, "SDV": 168.9, "E10": 144.9, "B7": 154.9}, "site_id": "gcw0et39dsn3", "postcode": "WN6 7NR", "address": "Woodhouse Lane, Wigan, Lancashire, WN6 7NR", "brand": "Esso"}, {"location": {"longitude": -1.4821347, "latitude": 53.430198}, "prices": {"E10": 147.9, "B7": 157.9}, "site_id": "gcqzyq8tryb3", "postcode": "S5 9NF", "address": "Wordsworth Avenue, Sheffield, South Yorkshire, S5 9NF", "brand": "Esso"}, {"location": {"longitude": -1.5490688, "latitude": 53.134693}, "prices": {"E5": 157.9, "SDV": 167.9, "E10": 143.9, "B7": 153.9}, "site_id": "gcqykbbh00dt", "postcode": "DE4 3BT", "address": "Matlock Green, Matlock, Derbyshire, DE4 3BT", "brand": "Esso"}, {"location": {"longitude": -2.2566148, "latitude": 53.410028}, "prices": {"E5": 159.9, "E10": 145.9, "B7": 153.9}, "site_id": "gcqruduzcnf5", "postcode": "M22 4FW", "address": "Palatine Road, NORTHENDEN, Manchester, Greater Manchester, M22 4FW", "brand": "Esso"}, {"location": {"longitude": -0.42347474, "latitude": 53.012638}, "prices": {"E5": 157.9, "SDV": 167.9, "E10": 143.9, "B7": 153.9}, "site_id": "gcrtw6esurfr", "postcode": "NG34 8NP", "address": "Junction A15/A17, HOLDINGHAM ROUNDABOUT, Sleaford, Lincolnshire, NG34 8NP", "brand": "BP"}, {"location": {"longitude": -0.63603663, "latitude": 52.904734}, "prices": {"SDV": 168.9, "E10": 144.9, "B7": 154.9}, "site_id": "gcrscx0b7m0x", "postcode": "NG31 6HS", "address": "London Road, Grantham, Lincolnshire, NG31 6HS", "brand": "Esso"}, {"location": {"longitude": -1.6339292, "latitude": 55.066491}, "prices": {"SDV": 167.9, "E10": 144.9, "B7": 153.9}, "site_id": "gcyc6bd1w9yj", "postcode": "NE13 6BP", "address": "Fisher Lane, SEATON BURN, Newcastle Upon Tyne, Tyne and Wear, NE13 6BP", "brand": "Esso"}, {"location": {"longitude": -1.7435174, "latitude": 53.906654}, "prices": {"E5": 155.9, "SDV": 165.9, "E10": 141.9, "B7": 151.9}, "site_id": "gcwf8m6mj0eh", "postcode": "LS29 7PU", "address": "Bradford Road, BURLEY IN WHARFDALE, Bradford, West Yorkshire, LS29 7PU", "brand": "Esso"}, {"location": {"longitude": -0.88645722, "latitude": 53.70651}, "prices": {"SDV": 166.9, "E10": 142.9, "B7": 152.9}, "site_id": "gcx3ebfx051e", "postcode": "DN14 6UJ", "address": "Rawcliffe Road, Goole, East Riding, DN14 6UJ", "brand": "Esso"}, {"location": {"longitude": -1.3982578, "latitude": 53.078626}, "prices": {"E5": 160.9, "E10": 146.9, "B7": 155.9}, "site_id": "gcrjbntv6jp3", "postcode": "DE55 1BG", "address": "Derby Road, SWANWICK, Alfreton, Derbyshire, DE55 1BG", "brand": "Esso"}, {"location": {"longitude": -1.6890191, "latitude": 54.960778}, "prices": {"E5": 157.9, "SDV": 167.9, "E10": 143.9, "B7": 153.9}, "site_id": "gcyb9t61ep85", "postcode": "NE16 3BJ", "address": "Derwenthaugh Road, SWALWELL, Newcastle Upon Tyne, Tyne and Wear, NE16 3BJ", "brand": "BP"}, {"location": {"longitude": -1.4402811, "latitude": 54.647954}, "prices": {"SDV": 167.9, "E10": 142.9, "B7": 153.9}, "site_id": "gcwyzhr5rhbx", "postcode": "TS21 2JX", "address": "A177 Sedgefield, Stockton On Tees, Cleveland, TS21 2JX", "brand": "Esso"}, {"location": {"longitude": -1.431283, "latitude": 54.994399}, "prices": {"E5": 156.9, "SDV": 165.9, "E10": 142.9, "B7": 151.9}, "site_id": "gcybz7mv8en0", "postcode": "NE33 5QX", "address": "Crossgates, South Shields, Tyne and Wear, NE33 5QX", "brand": "Esso"}, {"location": {"longitude": -1.7328633, "latitude": 54.853585}, "prices": {"SDV": 169.9, "E10": 144.9, "B7": 155.9}, "site_id": "gcyb09f1m37k", "postcode": "DH9 7RX", "address": "Morrison Road, ANNFIELD PLAIN, Stanley, County Durham, DH9 7RX", "brand": "Esso"}, {"location": {"longitude": -1.7031623, "latitude": 53.765217}, "prices": {"E10": 144.9, "B7": 155.9}, "site_id": "gcwcc5xv16yh", "postcode": "BD4 6NL", "address": "Tong Street, Bradford, West Yorkshire, BD4 6NL", "brand": "Esso"}, {"location": {"longitude": -1.8178837, "latitude": 54.858559}, "prices": {"E5": 158.9, "SDV": 169.9, "E10": 144.9, "B7": 155.9}, "site_id": "gcy8ndsq20xe", "postcode": "DH8 6BE", "address": "Leadgate Road, Consett, County Durham, DH8 6BE", "brand": "Esso"}, {"location": {"longitude": -0.62737794, "latitude": 51.305898}, "prices": {"E5": 156.9, "SDV": 167.9, "E10": 142.9, "B7": 153.9}, "site_id": "gcpeceznt094", "postcode": "GU24 0HH", "address": "Bagshot Road, BROOKWOOD, Woking, Surrey, GU24 0HH", "brand": "Esso"}, {"location": {"longitude": -1.5257132, "latitude": 54.914133}, "prices": {"E5": 155.9, "E10": 141.9, "B7": 151.9}, "site_id": "gcybmkc4023f", "postcode": "NE37 2PX", "address": "Heworth Road, Washington, Tyne and Wear, NE37 2PX", "brand": "Esso"}, {"location": {"longitude": -3.608637, "latitude": 50.528833}, "prices": {"E5": 156.9, "E10": 142.9, "B7": 152.9}, "site_id": "gbvrmykrb9jj", "postcode": "TQ12 1AQ", "address": "East Street, Newton Abbot, Devon, TQ12 1AQ", "brand": "Esso"}, {"location": {"longitude": -3.0288977, "latitude": 51.698131}, "prices": {"E5": 155.9, "SDV": 165.9, "E10": 141.9, "B7": 151.9}, "site_id": "gcjy5567mw45", "postcode": "NP4 8AN", "address": "Rockhill Road, Pontypool, Gwent, NP4 8AN", "brand": "Esso"}, {"location": {"longitude": -2.600679, "latitude": 51.455294}, "prices": {"E5": 158.9, "SDV": 168.9, "E10": 144.9, "B7": 154.9}, "site_id": "gcnhsz4hzf10", "postcode": "BS1 5LJ", "address": "Park Row, Bristol, Avon, BS1 5LJ", "brand": "Esso"}, {"location": {"longitude": -3.227272, "latitude": 51.484838}, "prices": {"E5": 157.9, "SDV": 166.9, "E10": 143.9, "B7": 152.9}, "site_id": "gcjsys9bzj7t", "postcode": "CF5 1BP", "address": "Cowbridge Road East, Cardiff, EU/GB/Not assigned, CF5 1BP", "brand": "Esso"}, {"location": {"longitude": -3.7009005, "latitude": 51.507393}, "prices": {"SDV": 167.9, "E10": 142.9, "B7": 153.9}, "site_id": "gcjm5b9h6cbx", "postcode": "CF33 4RE", "address": "South Cornelly, Porthcawl, Mid Glamorgan, CF33 4RE", "brand": "Esso"}, {"location": {"longitude": -2.6969169, "latitude": 51.507965}, "prices": {"E5": 158.9, "SDV": 167.9, "E10": 144.9, "B7": 153.9}, "site_id": "gcnj48sptk95", "postcode": "BS11 9HS", "address": "St Adrews Road, Bristol, Avon, BS11 9HS", "brand": "BP"}, {"location": {"longitude": -2.5680434, "latitude": 51.531076}, "prices": {"E5": 158.9, "E10": 144.9, "B7": 153.9}, "site_id": "gcnjjsfn22b1", "postcode": "BS34 5BB", "address": "Gloucester Road, Bristol, Avon, BS34 5BB", "brand": "Esso"}, {"location": {"longitude": -3.1277703, "latitude": 51.012352}, "prices": {"E5": 155.9, "SDV": 165.9, "E10": 141.9, "B7": 151.9}, "site_id": "gcjf0yd2mxtk", "postcode": "TA1 5LU", "address": "Wellington New Road, Taunton, Somerset, TA1 5LU", "brand": "Esso"}, {"location": {"longitude": -0.04888998, "latitude": 51.679794}, "prices": {"E5": 162.9, "SDV": 171.9, "E10": 147.9, "B7": 156.9}, "site_id": "gcpynbh2sgbg", "postcode": "EN1 4SE", "address": "Bullsmoor Lane, London, EN1 4SE", "brand": "BP"}, {"location": {"longitude": -0.27386553, "latitude": 53.748125}, "prices": {"E5": 160.9, "E10": 146.9, "B7": 156.9}, "site_id": "gcxccb89d2xn", "postcode": "HU9 5QN", "address": "Hedon Road, Hull, Humberside, HU9 5QN", "brand": "BP"}, {"location": {"longitude": -1.5092642, "latitude": 55.037809}, "prices": {"E5": 158.9, "SDV": 166.9, "E10": 144.9, "B7": 152.9}, "site_id": "gcycjekfrx5p", "postcode": "NE27 0HH", "address": "Earsdon Road, Shiremoor, Tyne And Wear, NE27 0HH", "brand": "BP"}, {"location": {"longitude": 0.64203756, "latitude": 51.563611}, "prices": {"E5": 157.9, "SDV": 167.9, "E10": 143.9, "B7": 153.9}, "site_id": "u10mqdgeb9cb", "postcode": "SS9 4QR", "address": "The Fairway, Leigh On Sea, Essex, SS9 4QR", "brand": "BP"}, {"location": {"longitude": 1.1160902, "latitude": 52.037934}, "prices": {"E5": 159.9, "SDV": 167.9, "E10": 145.9, "B7": 153.9}, "site_id": "u12b13hwyvcp", "postcode": "IP2 9RP", "address": "Ellenbrook Road, Ipswich, Suffolk, IP2 9RP", "brand": "BP"}, {"location": {"longitude": 1.1892819, "latitude": 52.059574}, "prices": {"E5": 159.9, "E10": 145.9, "B7": 153.9}, "site_id": "u12b5j4hbrbz", "postcode": "IP4 5NA", "address": "Spring Road, Ipswich, Suffolk, IP4 5NA", "brand": "BP"}, {"location": {"longitude": 0.02531147, "latitude": 51.468021}, "prices": {"E5": 159.9, "E10": 144.9, "B7": 154.9}, "site_id": "u10hb96qvy98", "postcode": "SE3 0DZ", "address": "Kidbrooke Park Road, Blackheath Common, London, SE3 0DZ", "brand": "BP"}, {"location": {"longitude": -1.9766093, "latitude": 52.441402}, "prices": {"E5": 158.9, "E10": 144.9, "B7": 152.9}, "site_id": "gcqd748tm9v7", "postcode": "B29 5RR", "address": "Alwold Road , WEOLEY CASTLE, Birmingham, West Midlands, B29 5RR", "brand": "BP"}, {"location": {"longitude": -3.0433772, "latitude": 53.011861}, "prices": {"E5": 157.9, "SDV": 166.9, "E10": 143.9, "B7": 152.9}, "site_id": "gcmvddxbkpjk", "postcode": "LL14 1PA", "address": "Wrexham Road, JOHNSTOWN, Wrexham, Clwyd, LL14 1PA", "brand": "BP"}, {"location": {"longitude": -2.4789515, "latitude": 51.430732}, "prices": {"E5": 158.9, "E10": 144.9, "B7": 154.9}, "site_id": "gcnhxddvsprf", "postcode": "BS30 6EF", "address": "114 Bath Road (A431) , WILLSBRIDGE, Bristol, Avon, BS30 6EF", "brand": "BP"}, {"location": {"longitude": -3.304967, "latitude": 52.5158}, "prices": {"SDV": 166.9, "E10": 143.9, "B7": 152.9}, "site_id": "gcmdub1qswtv", "postcode": "SY16 1DW", "address": "Pool Road, Newtown, Powys, SY16 1DW", "brand": "BP"}, {"location": {"longitude": -2.1519341, "latitude": 52.500074}, "prices": {"E10": 143.9, "B7": 154.9}, "site_id": "gcq6xj35071s", "postcode": "DY6 8WT", "address": "Dudley Road, Kingswinford, West Midlands, DY6 8WT", "brand": "BP"}, {"location": {"longitude": -1.9879092, "latitude": 53.904231}, "prices": {"E10": 144.9, "B7": 153.9}, "site_id": "gcwddubqykgq", "postcode": "BD20 7DT", "address": "STATION ROAD , CROSSHILLS, KEIGHLEY, YORKSHIRE, BD20 7DT", "brand": "BP"}, {"location": {"longitude": -1.4397388, "latitude": 52.428373}, "prices": {"E5": 157.9, "SDV": 167.9, "E10": 143.9, "B7": 153.9}, "site_id": "gcqfr0r97thf", "postcode": "CV2 2EU", "address": "Hinckley Road , WOODWAY, Coventry, Warks, CV2 2EU", "brand": "BP"}, {"location": {"longitude": -2.1075792, "latitude": 52.48786}, "prices": {"E10": 143.9, "B7": 154.9}, "site_id": "gcqd8517cy70", "postcode": "DY5 1TE", "address": "Pedmore Road, Brierley Hill, West Midlands, DY5 1TE", "brand": "BP"}, {"location": {"longitude": -0.67400777, "latitude": 52.288665}, "prices": {"E10": 143.9, "B7": 153.9}, "site_id": "gcr92wv5w3xk", "postcode": "NN8 2DU", "address": "Higham Road , LITTLE IRCHESTER, Nr Wellingborough, Northants, NN8 2DU", "brand": "BP"}, {"location": {"longitude": -2.9985095, "latitude": 53.347951}, "prices": {"E10": 144.9, "B7": 153.9}, "site_id": "gcmz7z8w3dv7", "postcode": "CH63 7RD", "address": "Bromborough Road, Bebington, Merseyside, CH63 7RD", "brand": "BP"}, {"location": {"longitude": -2.5263153, "latitude": 53.262708}, "prices": {"E5": 157.9, "SDV": 165.9, "E10": 143.9, "B7": 151.9}, "site_id": "gcqpn80mu86v", "postcode": "CW8 4DB", "address": "Winnington Lane, Northwich, Cheshire, CW8 4DB", "brand": "BP"}, {"location": {"longitude": -1.969023, "latitude": 52.392359}, "prices": {"E10": 145.9, "B7": 155.9}, "site_id": "gcqd51wpw7w5", "postcode": "B31 4QH", "address": "Groveley Lane/Longbridge Lane, West Heath, West Midlands, B31 4QH", "brand": "BP"}, {"location": {"longitude": -2.5032086, "latitude": 53.524818}, "prices": {"E5": 157.9, "SDV": 167.9, "E10": 143.9, "B7": 153.9}, "site_id": "gcw0rpchxj22", "postcode": "M46 0LN", "address": "Wigan Road, Atherton, Manchester, M46 0LN", "brand": "BP"}, {"location": {"longitude": -1.1391993, "latitude": 52.994009}, "prices": {"E5": 156.9, "SDV": 166.9, "E10": 142.9, "B7": 152.9}, "site_id": "gcrjqp62qxr3", "postcode": "NG5 3GF", "address": "Mansfiled Road, Nottingham, Nottinghamshire, NG5 3GF", "brand": "BP"}, {"location": {"longitude": -1.4375334, "latitude": 54.892711}, "prices": {"E5": 156.9, "E10": 142.9, "B7": 152.9}, "site_id": "gcybr2cjpncr", "postcode": "SR4 8HB", "address": "Broadway, Sunderland, Tyne & Wear, SR4 8HB", "brand": "BP"}, {"location": {"longitude": -1.4748853, "latitude": 53.328316}, "prices": {"E5": 162.9, "SDV": 167.9, "E10": 145.9, "B7": 153.9}, "site_id": "gcqzqkn5bwtu", "postcode": "S8 7UJ", "address": "Chesterfield Road, Sheffield, Yorkshire, S8 7UJ", "brand": "BP"}, {"location": {"longitude": -1.1815951, "latitude": 54.549459}, "prices": {"E5": 158.9, "SDV": 167.9, "E10": 144.9, "B7": 153.9}, "site_id": "gcxnm47tdu4v", "postcode": "TS7 9AE", "address": "High Street, Middlesborough, Cleveland, TS7 9AE", "brand": "BP"}, {"location": {"longitude": -1.6212506, "latitude": 53.804974}, "prices": {"E5": 157.9, "E10": 143.9, "B7": 152.9}, "site_id": "gcwf54gkwn5g", "postcode": "LS13 4AD", "address": "Henconner Lane, Leeds, Yorkshire, LS13 4AD", "brand": "BP"}, {"location": {"longitude": -1.4458062, "latitude": 54.913597}, "prices": {"E5": 156.9, "SDV": 165.9, "E10": 142.9, "B7": 151.9}, "site_id": "gcybrhenyk2v", "postcode": "SR5 3NX", "address": "North Hylton, Sunderland, Tyne & Wear, SR5 3NX", "brand": "BP"}, {"location": {"longitude": -0.1362802, "latitude": 51.485242}, "prices": {"E5": 167.9, "SDV": 174.9, "E10": 152.9, "B7": 159.9}, "site_id": "gcpuuusg22wp", "postcode": "SW1V 3JY", "address": "Grosvenor Road, London, London, SW1V 3JY", "brand": "Shell"}, {"location": {"longitude": -0.75593, "latitude": 52.04726}, "prices": {"E5": 159.9, "E10": 145.9, "B7": 155.9}, "site_id": "gcr2nfct383x", "postcode": "MK9 3DZ", "address": "PORTWAY, MILTON KEYNES, BUCKINGHAMSHIRE, MK9 3DZ", "brand": "BP"}, {"location": {"longitude": -0.01604453, "latitude": 51.128219}, "prices": {"E5": 156.9, "SDV": 168.9, "E10": 141.9, "B7": 153.9}, "site_id": "gcpfzes76nu6", "postcode": "RH19 1DJ", "address": "27 Station Road, East Grinstead, SUSSEX, RH19 1DJ", "brand": "Esso"}, {"location": {"longitude": 0.66186642, "latitude": 51.604146}, "prices": {"E5": 157.9, "SDV": 167.9, "E10": 143.9, "B7": 153.9}, "site_id": "u10mx41zyw53", "postcode": "SS5 5HA", "address": "32 Greensward Lane, Hockley, ESSEX, SS5 5HA", "brand": "Esso"}, {"location": {"longitude": 0.10790891, "latitude": 51.345358}, "prices": {"E5": 161.9, "SDV": 173.9, "E10": 146.9, "B7": 158.9}, "site_id": "u10h47ns6kqw", "postcode": "BR6 7SE", "address": "Sevenoaks Road, Pratts Bottom, KENT, BR6 7SE", "brand": "Esso"}, {"location": {"longitude": -0.28352323, "latitude": 51.491752}, "prices": {"E5": 157.9, "SDV": 169.9, "E10": 142.9, "B7": 154.9}, "site_id": "gcpuctc91qmc", "postcode": "W4 5QJ", "address": "1 Great West Road, London, GREATER LONDON, W4 5QJ", "brand": "Esso"}, {"location": {"longitude": 0.06538033, "latitude": 51.654576}, "prices": {"E5": 162.9, "E10": 147.9, "B7": 158.9}, "site_id": "u10jc7rteqzh", "postcode": "IG10 1QR", "address": "Church Hill, Loughton, ESSEX, IG10 1QR", "brand": "Esso"}, {"location": {"longitude": 0.5596804, "latitude": 51.372121}, "prices": {"E5": 159.9, "SDV": 168.9, "E10": 145.9, "B7": 154.9}, "site_id": "u10kk8p833ry", "postcode": "ME7 2YY", "address": "149-151 Watling Street, Gillingham, KENT, ME7 2YY", "brand": "Esso"}, {"location": {"longitude": 0.23708113, "latitude": 51.437686}, "prices": {"E5": 160.9, "SDV": 170.9, "E10": 145.9, "B7": 155.9}, "site_id": "u10ht7uwhrss", "postcode": "DA1 1YT", "address": "474 Princes Road, Dartford, KENT, DA1 1YT", "brand": "BP"}, {"location": {"longitude": -0.03998411, "latitude": 51.35066}, "prices": {"E5": 168.9, "SDV": 185.9, "E10": 153.9, "B7": 162.9}, "site_id": "gcpuph4gk2cd", "postcode": "CR2 8JT", "address": "76 SELSDON PARK ROAD, CROYDON, SURREY, CR2  8JT", "brand": "Esso"}, {"location": {"longitude": 0.28928243, "latitude": 51.450303}, "prices": {"E5": 163.9, "SDV": 171.9, "E10": 148.9, "B7": 156.9}, "site_id": "u10hww4xsz8s", "postcode": "DA9 9EJ", "address": "London Road, Greenhithe, KENT, DA9 9EJ", "brand": "Esso"}, {"location": {"longitude": 0.11488303, "latitude": 51.758548}, "prices": {"E5": 157.9, "SDV": 169.9, "E10": 143.9, "B7": 155.9}, "site_id": "u10n6w7ekuwv", "postcode": "CM18 6NQ", "address": "Tillwicks Road, Bush Fair, Harlow, ESSEX, CM18 6NQ", "brand": "Esso"}, {"location": {"longitude": -0.15460243, "latitude": 51.290508}, "prices": {"E5": 159.9, "SDV": 168.9, "E10": 145.9, "B7": 154.9}, "site_id": "gcpgu3pkve8j", "postcode": "CR5 3EG", "address": "77-85 Brighton Road, Coulsdon, SURREY, CR5 3EG", "brand": "Esso"}, {"location": {"longitude": 0.26673339, "latitude": 50.786883}, "prices": {"E5": 157.9, "SDV": 167.9, "E10": 143.9, "B7": 153.9}, "site_id": "u100yj6pp34v", "postcode": "BN21 2UH", "address": "Kings Drive, Eastbourne, EAST SUSSEX, BN21 2UH", "brand": "Esso"}, {"location": {"longitude": -0.32996884, "latitude": 51.30296}, "prices": {"E5": 158.9, "SDV": 169.9, "E10": 143.9, "B7": 154.9}, "site_id": "gcpgb7rtrhvk", "postcode": "KT22 7SP", "address": "73 Kingston Road, Leatherhead, SURREY, KT22 7SP", "brand": "Esso"}, {"location": {"longitude": -0.03328171, "latitude": 51.56755}, "prices": {"E5": 156.9, "SDV": 165.9, "E10": 142.9, "B7": 151.9}, "site_id": "gcpvr5xfb2p3", "postcode": "E10 7PN", "address": "209 Lea Bridge Road, Leyton, GREATER LONDON, E10 7PN", "brand": "Esso"}, {"location": {"longitude": -1.8891573, "latitude": 52.450657}, "prices": {"E5": 158.9, "E10": 144.9, "B7": 155.9}, "site_id": "gcqdmh275rnh", "postcode": "B13 8AA", "address": "45 Alcester Road, Moseley, WARWICKSHIRE, B13 8AA", "brand": "Esso"}, {"location": {"longitude": -1.9045731, "latitude": 52.643782}, "prices": {"E5": 157.9, "E10": 143.9, "B7": 153.9}, "site_id": "gcqekxt0k0pr", "postcode": "WS14 0BH", "address": "A5 Watling Street, Muckley Corner, LICHFIELD, WS14 0BH", "brand": "Esso"}, {"location": {"longitude": -2.1990751, "latitude": 53.622336}, "prices": {"E5": 156.9, "SDV": 165.9, "E10": 142.9, "B7": 151.9}, "site_id": "gcw3jcwstzfv", "postcode": "OL11 5XR", "address": "EDENFIELD ROAD, NORDEN, Rochdale, GREATER MANCHESTER, OL11 5XR", "brand": "Esso"}, {"location": {"longitude": -1.46141, "latitude": 53.37062}, "prices": {"E5": 158.9, "SDV": 168.9, "E10": 144.9, "B7": 154.9}, "site_id": "gcqzwezf6stt", "postcode": "S2 3PS", "address": "Norfolk Park Services, EAST BANK ROAD, Sheffield, SOUTH YORKSHIRE, S2 3PS", "brand": "Esso"}, {"location": {"longitude": -3.6940281, "latitude": 51.531502}, "prices": {"E10": 142.9, "B7": 153.9}, "site_id": "gcjm5vn0fbjp", "postcode": "CF33 6HR", "address": "Main Road, Pyle, BRIDGEND, CF33 6HR", "brand": "Esso"}, {"location": {"longitude": -0.21076924, "latitude": 52.599717}, "prices": {"E5": 158.9, "SDV": 169.9, "E10": 144.9, "B7": 155.9}, "site_id": "gcrg5pqx89zj", "postcode": "PE1 4BF", "address": "Paston Parkway, Peterborough, CAMBRIDGESHIRE, PE1 4BF", "brand": "Esso"}, {"location": {"longitude": -2.3177103, "latitude": 53.567809}, "prices": {"E5": 157.9, "SDV": 166.9, "E10": 143.9, "B7": 152.9}, "site_id": "gcw2er8r17mg", "postcode": "M26 2UT", "address": "Bury Road, RADCLIFFE, Manchester, LANCASHIRE, M26 2UT", "brand": "Esso"}, {"location": {"longitude": -1.7992063, "latitude": 50.845925}, "prices": {"SDV": 171.9, "E10": 145.9, "B7": 157.9}, "site_id": "gcn9r01ygrqs", "postcode": "BH24 2AA", "address": "The Bridges, Ringwood, HAMPSHIRE, BH24 2AA", "brand": "Esso"}, {"location": {"longitude": -0.30457156, "latitude": 51.49168}, "prices": {"E5": 157.9, "E10": 142.9, "B7": 154.9}, "site_id": "gcpucjf0ybyg", "postcode": "TW8 9AD", "address": "Great West Road, Brentford, LONDON, TW8 9AD", "brand": "Esso"}, {"location": {"longitude": 0.45641278, "latitude": 51.733038}, "prices": {"E5": 157.9, "E10": 143.9, "B7": 155.9}, "site_id": "u10q63sqg1q0", "postcode": "CM1 2RY", "address": "Waterhouse Lane, Chelmsford, ESSEX, CM1 2RY", "brand": "Esso"}, {"location": {"longitude": -2.5043707, "latitude": 53.750447}, "prices": {"E5": 156.9, "E10": 142.9, "B7": 152.9}, "site_id": "gcw1z0br5ctc", "postcode": "BB2 6PN", "address": "Preston New Road, Blackburn, LANCASHIRE, BB2 6PN", "brand": "Esso"}, {"location": {"longitude": -1.764021, "latitude": 53.733319}, "prices": {"E5": 159.9, "SDV": 169.9, "E10": 145.9, "B7": 155.9}, "site_id": "gcw9xvg7r2dt", "postcode": "BD12 9LN", "address": "WHITEHALL ROAD, BRADFORD, WEST YORKSHIRE, BD12 9LN", "brand": "Esso"}, {"location": {"longitude": -1.1030307, "latitude": 52.584095}, "prices": {"E5": 157.9, "E10": 143.9, "B7": 152.9}, "site_id": "gcr5nusu99b8", "postcode": "LE18 1PA", "address": "Bull Head Street, Wigston, LEICESTERSHIRE, LE18 1PA", "brand": "Esso"}, {"location": {"longitude": -1.481325, "latitude": 53.354456}, "prices": {"E5": 158.9, "E10": 144.9, "B7": 154.9}, "site_id": "gcqzw2ck4xkp", "postcode": "S8 0RS", "address": "Chesterfield Road, MEERSBROOK, Sheffield, SOUTH YORKSHIRE, S8 0RS", "brand": "Esso"}, {"location": {"longitude": -1.8868971, "latitude": 52.367722}, "prices": {"E5": 155.9, "SDV": 166.9, "E10": 141.9, "B7": 152.9}, "site_id": "gcq9vj6004gt", "postcode": "B47 6AP", "address": "Alcester Road, Wythall, WARWICKSHIRE, B47 6AP", "brand": "Esso"}, {"location": {"longitude": -0.37409002, "latitude": 53.727458}, "prices": {"E5": 157.9, "SDV": 166.9, "E10": 143.9, "B7": 152.9}, "site_id": "gcx9xkz95h46", "postcode": "HU3 4SA", "address": "St Andrews Quay, Hull, East Riding, HU3 4SA", "brand": "Esso"}, {"location": {"longitude": -1.2661135, "latitude": 53.882432}, "prices": {"E5": 161.9, "SDV": 170.9, "E10": 147.9, "B7": 156.9}, "site_id": "gcx4e0ypcmm6", "postcode": "LS24 9HB", "address": "Leeds Road, Tadcaster, North Yorkshire, LS24 9HB", "brand": "Esso"}, {"location": {"longitude": -0.60302679, "latitude": 51.345293}, "prices": {"E5": 156.9, "SDV": 167.9, "E10": 142.9, "B7": 153.9}, "site_id": "gcps470uh2qe", "postcode": "GU24 8AJ", "address": "Station Road, Chobham, Surrey, GU24 8AJ", "brand": "Esso"}, {"location": {"longitude": -0.11265139, "latitude": 50.817418}, "prices": {"E5": 160.9, "SDV": 179.9, "E10": 146.9, "B7": 157.9}, "site_id": "gcpcj7jbzj34", "postcode": "BN2 5JJ", "address": "Eastern Road, Brighton, Sussex, BN2 5JJ", "brand": "Esso"}, {"location": {"longitude": -3.0392152, "latitude": 53.824868}, "prices": {"E5": 160.9, "E10": 146.9, "B7": 155.9}, "site_id": "gctf4ydbt4su", "postcode": "FY3 8BQ", "address": "Devonshire Road, Blackpool, Lancashire, FY3 8BQ", "brand": "Esso"}, {"location": {"longitude": -1.4495067, "latitude": 52.892077}, "prices": {"E5": 158.9, "SDV": 169.9, "E10": 144.9, "B7": 155.9}, "site_id": "gcquzh8w8jc3", "postcode": "DE24 8JZ", "address": "Harvey Road, Derby, Derbyshire, DE24 8JZ", "brand": "Esso"}, {"location": {"longitude": -0.43272046, "latitude": 53.732788}, "prices": {"E5": 157.9, "E10": 143.9, "B7": 152.9}, "site_id": "gcx9wjubhvsj", "postcode": "HU13 9AU", "address": "Boothferry Road, Hessle, East Riding, HU13 9AU", "brand": "Esso"}, {"location": {"longitude": -2.5775065, "latitude": 53.262291}, "prices": {"E5": 157.9, "SDV": 165.9, "E10": 143.9, "B7": 151.9}, "site_id": "gcqpj2557dxv", "postcode": "CW8 3EU", "address": "Northwich Road, WEAVERHAM, Northwich, Cheshire, CW8 3EU", "brand": "Esso"}, {"location": {"longitude": 0.0539008, "latitude": 52.066516}, "prices": {"SDV": 169.9, "E10": 144.9, "B7": 155.9}, "site_id": "u1201nrjryp3", "postcode": "SG8 7PN", "address": "New Market Road, HEYDON, Royston, Hertfordshire, SG8 7PN", "brand": "Esso"}, {"location": {"longitude": -0.41943331, "latitude": 54.24853}, "prices": {"E5": 158.9, "SDV": 167.9, "E10": 144.9, "B7": 153.9}, "site_id": "gcxsw7wsd6zy", "postcode": "YO12 4LR", "address": "Seamer Road, Scarborough, North Yorkshire, YO12 4LR", "brand": "Esso"}, {"location": {"longitude": -3.5466177, "latitude": 50.741802}, "prices": {"E5": 157.9, "SDV": 167.9, "E10": 143.9, "B7": 153.9}, "site_id": "gcj2xm32mv6p", "postcode": "EX4 5AD", "address": "Cowley Bridge Road, Exeter, Devon, EX4 5AD", "brand": "Esso"}, {"location": {"longitude": -2.9706897, "latitude": 53.411436}, "prices": {"E5": 157.9, "E10": 143.9, "B7": 153.9}, "site_id": "gcmzu7kb1vm4", "postcode": "L3 8PP", "address": "New Islington Road, Liverpool, Merseyside, L3 8PP", "brand": "BP"}, {"location": {"longitude": -1.40986, "latitude": 52.533601}, "prices": {"SDV": 165.9, "E10": 143.9, "B7": 151.9}, "site_id": "gcqfzgmq7vh0", "postcode": "LE10 3ED", "address": "Watling Street - A5, Hinckley, Leicestershire, LE10 3ED", "brand": "BP"}, {"location": {"longitude": -1.125168, "latitude": 52.946631}, "prices": {"E5": 157.9, "E10": 143.9, "B7": 152.9}, "site_id": "gcrjnqssmxmu", "postcode": "NG2 3GG", "address": "Daleside Road, Nottingham, Nottinghamshire, NG2 3GG", "brand": "BP"}, {"location": {"longitude": -1.1567838, "latitude": 52.25799}, "prices": {"E10": 146.9, "B7": 156.9}, "site_id": "gcr1m9m8ugrk", "postcode": "NN11 4GD", "address": "Vicar Lane, Daventry, Northamptonshire, NN11 4GD", "brand": "Esso"}, {"location": {"longitude": -1.4661621, "latitude": 53.230757}, "prices": {"E10": 145.9, "B7": 154.9}, "site_id": "gcqyydk7euq3", "postcode": "S40 3JX", "address": "Chatsworth Road, BRAMPTON, Chesterfield, Derbyshire, S40 3JX", "brand": "Esso"}, {"location": {"longitude": -2.2104111, "latitude": 51.740195}, "prices": {"E5": 156.9, "SDV": 166.9, "E10": 142.9, "B7": 152.9}, "site_id": "gcnqmen2mxqj", "postcode": "GL5 2AX", "address": "London Road, Stroud, Gloucestershire, GL5 2AX", "brand": "BP"}, {"location": {"longitude": -2.9388937, "latitude": 53.459583}, "prices": {"E5": 159.9, "E10": 145.9, "B7": 155.9}, "site_id": "gctbjh5bwud4", "postcode": "L9 7JT", "address": "Long Lane , AINTREE, Walton, Liverpool, L9 7JT", "brand": "BP"}, {"location": {"longitude": -4.9954625, "latitude": 51.75746}, "prices": {"E5": 158.9, "E10": 144.9, "B7": 153.9}, "site_id": "gchqqq4mj3c5", "postcode": "SA62 3PJ", "address": "St Peters Road , JOHNSTON, Haverfordwest, Dyfed, SA62 3PJ", "brand": "BP"}, {"location": {"longitude": 0.24277714, "latitude": 51.578776}, "prices": {"E5": 158.9, "SDV": 169.9, "E10": 144.9, "B7": 155.9}, "site_id": "u10jmt8u1hez", "postcode": "RM11 3EA", "address": "A127 Southend Arterial Rd Westbound , ASH LANE, Hornchurch, Essex, RM11 3EA", "brand": "BP"}, {"location": {"longitude": -1.5536609, "latitude": 54.532917}, "prices": {"E5": 158.9, "E10": 144.9, "B7": 154.9}, "site_id": "gcwyhxktm0d2", "postcode": "DL1 1UH", "address": "A167 High Northgate , MEVILLE STREET, Darlington, County Durham, DL1 1UH", "brand": "BP"}, {"location": {"longitude": -0.3220547, "latitude": 53.773053}, "prices": {"E5": 159.9, "SDV": 169.9, "E10": 145.9, "B7": 155.9}, "site_id": "gcxcbtj6xxde", "postcode": "HU7 0DF", "address": "Leads Road, Southside, SOUTHSIDE, Hull, Humberside, HU7 0DF", "brand": "BP"}, {"location": {"longitude": -2.1398462, "latitude": 51.367203}, "prices": {"E5": 155.9, "E10": 141.9, "B7": 152.9}, "site_id": "gcnkpr1g9uxj", "postcode": "SN12 6DE", "address": "Semington Road, Melksham, Wiltshire, SN12 6DE", "brand": "Esso"}, {"location": {"longitude": -2.1851245, "latitude": 51.257224}, "prices": {"SDV": 167.9, "E10": 143.9, "B7": 153.9}, "site_id": "gcn7w70ffzj5", "postcode": "BA13 3PJ", "address": "Warminster Road, Westbury, Wiltshire, BA13 3PJ", "brand": "Esso"}, {"location": {"longitude": 0.19410128, "latitude": 51.905104}, "prices": {"E5": 158.9, "SDV": 168.9, "E10": 144.9, "B7": 154.9}, "site_id": "u10pk3j34usm", "postcode": "CM24 8BX", "address": "Cambridge Road, Stansted, Essex, CM24 8BX", "brand": "Esso"}, {"location": {"longitude": 0.11814815, "latitude": 51.78589}, "prices": {"E5": 157.9, "SDV": 165.9, "E10": 143.9, "B7": 151.9}, "site_id": "u10ndeq49j9d", "postcode": "CM20 2DG", "address": "Edinburgh Way, Harlow, Essex, CM20 2DG", "brand": "BP"}, {"location": {"longitude": -0.39750199, "latitude": 51.668397}, "prices": {"E5": 157.9, "SDV": 165.9, "E10": 143.9, "B7": 151.9}, "site_id": "gcptyvyw1x31", "postcode": "WD24 4AE", "address": "St Albans Road, Watford, Hertfordshire, WD24 4AE", "brand": "Esso"}, {"location": {"longitude": -1.122618, "latitude": 52.643882}, "prices": {"SDV": 167.9, "E10": 144.9, "B7": 153.9}, "site_id": "gcr5qrw8c4gk", "postcode": "LE1 2JY", "address": "Dysart Way, Leicester, Leicestershire, LE1 2JY", "brand": "Esso"}, {"location": {"longitude": -3.1696867, "latitude": 53.397832}, "prices": {"E5": 158.9, "SDV": 167.9, "E10": 144.9, "B7": 153.9}, "site_id": "gcmxzbgbuvq7", "postcode": "CH47 0LA", "address": "Hoylake, 48 BIRKENHEAD ROAD, Hoylake, Merseyside, CH47 0LA", "brand": "Esso"}, {"location": {"longitude": 0.53341867, "latitude": 52.338387}, "prices": {"SDV": 174.9, "E10": 149.9, "B7": 159.9}, "site_id": "u123spumjw3z", "postcode": "IP28 6AE", "address": "Newmarket Road (A11), Barton Mills, Suffolk, IP28 6AE", "brand": "BP"}, {"location": {"longitude": -0.29790577, "latitude": 52.637738}, "prices": {"E5": 157.9, "SDV": 167.9, "E10": 143.9, "B7": 153.9}, "site_id": "gcrg3nrj4393", "postcode": "PE6 7JR", "address": "Lincoln Road, GLINTON, Peterborough, Cambridgeshire, PE6 7JR", "brand": "Esso"}, {"location": {"longitude": 0.25189229, "latitude": 51.124103}, "prices": {"E5": 160.9, "SDV": 170.9, "E10": 145.9, "B7": 155.9}, "site_id": "u104vdz7mx89", "postcode": "TN4 8HJ", "address": "Eridge Road, Tunbridge Wells, Kent, TN4 8HJ", "brand": "Esso"}, {"location": {"longitude": -1.8889898, "latitude": 52.358994}, "prices": {"SDV": 166.9, "E10": 141.9, "B7": 152.9}, "site_id": "gcq9v58mprgj", "postcode": "B47 6DG", "address": "Alcester Road, WYTHALL, Birmingham, West Midlands, B47 6DG", "brand": "Esso"}, {"location": {"longitude": -1.76398, "latitude": 52.499611}, "prices": {"E5": 158.9, "SDV": 168.9, "E10": 144.9, "B7": 154.9}, "site_id": "gcqdxv782kc1", "postcode": "B36 0LB", "address": "Chester Road, CASTLE BROMWICH, Birmingham, West Midlands, B36 0LB", "brand": "Esso"}, {"location": {"longitude": -0.06993475, "latitude": 53.570084}, "prices": {"E5": 158.9, "SDV": 168.9, "E10": 144.9, "B7": 154.9}, "site_id": "gcxby2jh67ky", "postcode": "DN32 7DX", "address": "Albion Street, Grimsby, North Lincolnshire, DN32 7DX", "brand": "Esso"}, {"location": {"longitude": -0.62642792, "latitude": 53.1775}, "prices": {"E5": 158.9, "SDV": 168.9, "E10": 144.9, "B7": 154.9}, "site_id": "gcrw98xv7hmr", "postcode": "LN6 9AJ", "address": "Middle Lane, THORPE ON THE HILL, Lincoln, Lincolnshire, LN6 9AJ", "brand": "BP"}, {"location": {"longitude": -1.5635635, "latitude": 54.517253}, "prices": {"E5": 158.9, "SDV": 168.9, "E10": 144.9, "B7": 154.9}, "site_id": "gcwyhkt6n2d9", "postcode": "DL1 5NP", "address": "Grange Road, Darlington, County Durham, DL1 5NP", "brand": "Esso"}, {"location": {"longitude": -1.5874111, "latitude": 54.976336}, "prices": {"E5": 157.9, "E10": 143.9, "B7": 152.9}, "site_id": "gcybgbhh6eu6", "postcode": "NE6 1JN", "address": "Shields Road West, Newcastle Upon Tyne, Tyne & Wear, NE6 1JN", "brand": "BP"}, {"location": {"longitude": -0.54190008, "latitude": 50.839958}, "prices": {"E5": 159.9, "SDV": 169.9, "E10": 145.9, "B7": 155.9}, "site_id": "gcp95xjkhz44", "postcode": "BN17 7QQ", "address": "Lyminster Road , LYMINSTER, Littlehampton, West Sussex, BN17 7QQ", "brand": "BP"}, {"location": {"longitude": -1.5025554, "latitude": 52.428124}, "prices": {"E5": 159.9, "SDV": 169.9, "E10": 145.9, "B7": 155.9}, "site_id": "gcqfmb1zgytm", "postcode": "CV6 5NY", "address": "Lockhurst Lane, Coventry, West Midlands, CV6 5NY", "brand": "BP"}, {"location": {"longitude": -0.98492503, "latitude": 51.463673}, "prices": {"E5": 158.9, "SDV": 167.9, "E10": 144.9, "B7": 153.9}, "site_id": "gcpkc8dv9efx", "postcode": "RG1 8EQ", "address": "Richfield Avenue, Reading, Berkshire, RG1 8EQ", "brand": "BP"}, {"location": {"longitude": -1.1754575, "latitude": 51.397405}, "prices": {"SDV": 168.9, "E10": 145.9, "B7": 154.9}, "site_id": "gcphmk859fer", "postcode": "RG7 5RT", "address": "A4 Bath Road , WOOLHAMPTON, Nr. Thatcham, Berkshire, RG7 5RT", "brand": "BP"}, {"location": {"longitude": -0.62508924, "latitude": 52.296008}, "prices": {"E5": 157.9, "SDV": 167.9, "E10": 143.9, "B7": 153.9}, "site_id": "gcr99b0y667w", "postcode": "NN10 6AP", "address": "A45 Rushden - Eastbound, Nr. Wellingborough, Northants, NN10 6AP", "brand": "BP"}, {"location": {"longitude": -1.258181, "latitude": 54.546196}, "prices": {"E10": 143.9, "B7": 153.9}, "site_id": "gcxn73gfd7bj", "postcode": "TS5 7BW", "address": "Acklam Road, ACKLAM, Middlesbrough, Cleveland, TS5 7BW", "brand": "Esso"}, {"location": {"longitude": -1.3481648, "latitude": 53.640782}, "prices": {"E10": 143.9, "B7": 153.9}, "site_id": "gcx11m421qx2", "postcode": "WF7 7AA", "address": "A638 WAKEFIELD ROAD, ACKWORTH, Wakefield, West Yorkshire, WF7 7AA", "brand": "Esso"}, {"location": {"longitude": -1.6350207, "latitude": 54.953268}, "prices": {"E5": 158.9, "SDV": 168.9, "E10": 144.9, "B7": 154.9}, "site_id": "gcybdgcmvr8h", "postcode": "NE8 2QX", "address": "Clockmill Road, GATESHEAD, Newcastle Upon Tyne, Tyne and Wear, NE8 2QX", "brand": "Esso"}, {"location": {"longitude": -1.2837439, "latitude": 54.744907}, "prices": {"SDV": 170.9, "E10": 145.9, "B7": 156.9}, "site_id": "gcxp6y10nw74", "postcode": "TS27 4HS ", "address": "Coast Road, BLACKHALL, Peterlee, County Durham, TS27 4HS ", "brand": "Esso"}, {"location": {"longitude": -1.624242, "latitude": 53.755666}, "prices": {"E5": 156.9, "SDV": 167.9, "E10": 142.9, "B7": 153.9}, "site_id": "gcwcg1cm2qmq", "postcode": "LS27 7LG", "address": "Gelderd Road, GILDERSOME, Morley, West Yorkshire, LS27 7LG", "brand": "Esso"}, {"location": {"longitude": -1.8189014, "latitude": 53.749431}, "prices": {"E5": 156.9, "SDV": 166.9, "E10": 142.9, "B7": 152.9}, "site_id": "gcw9y8g90s0u", "postcode": "HX3 7JT", "address": "Halifax Road, SHELF, Halifax, West Yorkshire, HX3 7JT", "brand": "Esso"}, {"location": {"longitude": -1.7591793, "latitude": 53.76093}, "prices": {"E5": 159.9, "SDV": 169.9, "E10": 145.9, "B7": 155.9}, "site_id": "gcw9zfzh05sz", "postcode": "BD12 0HH", "address": "Cleakheaton Road, LOW MOOR, Bradford, West Yorkshire, BD12 0HH", "brand": "Esso"}, {"location": {"longitude": -1.6937302, "latitude": 55.397991}, "prices": {"E5": 158.9, "SDV": 167.9, "E10": 144.9, "B7": 153.9}, "site_id": "gcyg1kystnp0", "postcode": "NE66 2BF", "address": "Cawledge Service Area, HAWFINCH DRIVE, Alnwick, Northumberland, NE66 2BF", "brand": "BP"}, {"location": {"longitude": -0.75596699, "latitude": 52.047951}, "prices": {"E5": 159.9, "SDV": 169.9, "E10": 145.9, "B7": 155.9}, "site_id": "gcr2ng1929q1", "postcode": "MK14 7BF", "address": "PORTWAY, CONNIBURROW, MILTON KEYNES, BUCKINGHAMSHIRE, MK14 7BF", "brand": "BP"}, {"location": {"longitude": -3.5440689, "latitude": 50.469495}, "prices": {"E5": 156.9, "E10": 142.9, "B7": 153.9}, "site_id": "gbvrp7eq15y8", "postcode": "TQ2 5LG", "address": "Avenue Road, Torquay, Devon, TQ2 5LG", "brand": "Esso"}, {"location": {"longitude": -3.0152906, "latitude": 51.823806}, "prices": {"E5": 162.9, "SDV": 170.9, "E10": 148.9, "B7": 156.9}, "site_id": "gcjyg6hrd9sk", "postcode": "NP7 5PR", "address": "HEREFORD ROAD, ABERGAVENNY, GWENT, NP7 5PR", "brand": "Esso"}, {"location": {"longitude": -3.5376789, "latitude": 50.707323}, "prices": {"E5": 159.9, "SDV": 168.9, "E10": 145.9, "B7": 154.9}, "site_id": "gcj2rqzzw457", "postcode": "EX2 8NA", "address": "ALPHINGTON ROAD, EXETER, DEVON, EX2  8NA", "brand": "Esso"}, {"location": {"longitude": -2.9951724, "latitude": 51.237834}, "prices": {"E5": 158.9, "E10": 144.9, "B7": 154.9}, "site_id": "gcjg7zdfp2t9", "postcode": "TA8 1EW", "address": "Oxford Street, Burnham-On-Sea, Somerset, TA8 1EW", "brand": "Esso"}, {"location": {"longitude": -3.3068014, "latitude": 51.508527}, "prices": {"E5": 164.9, "SDV": 174.9, "E10": 149.9, "B7": 159.9}, "site_id": "gcjthbb4cvq5", "postcode": "CF72 8SA", "address": "M4 Junction 33, Nr Pontyclun, Mid Glamorgan, CF72 8SA", "brand": "BP"}, {"location": {"longitude": -2.491956, "latitude": 51.412074}, "prices": {"E5": 158.9, "SDV": 168.9, "E10": 144.9, "B7": 154.9}, "site_id": "gcnhrr33j1nz", "postcode": "BS31 1NN", "address": "20 Bath Road, Bristol, Avon, BS31 1NN", "brand": "Esso"}, {"location": {"longitude": -1.5694871, "latitude": 54.609102}, "prices": {"E5": 157.9, "SDV": 167.9, "E10": 143.9, "B7": 153.9}, "site_id": "gcwysm31h63w", "postcode": "DL5 6EH", "address": "St Cuthberts Way, NEWTON AYCLIFFE, Darlington, County Durham, DL5 6EH", "brand": "Esso"}, {"location": {"longitude": -1.7576684, "latitude": 53.844263}, "prices": {"E5": 156.9, "SDV": 166.9, "E10": 142.9, "B7": 152.9}, "site_id": "gcwf2401e657", "postcode": "BD17 7HU", "address": "Otley Road, BAILDON, Shipley, West Yorkshire, BD17 7HU", "brand": "Esso"}, {"location": {"longitude": -2.3644769, "latitude": 51.377922}, "prices": {"E5": 157.9, "SDV": 167.9, "E10": 142.9, "B7": 152.9}, "site_id": "gcnk61n4pdy4", "postcode": "BA2 3BA", "address": "Lower Bristol Road, Bath, Avon, BA2 3BA", "brand": "Esso"}, {"location": {"longitude": -0.03170166, "latitude": 51.609132}, "prices": {"E5": 159.9, "SDV": 168.9, "E10": 144.9, "B7": 153.9}, "site_id": "gcpvx70uvr98", "postcode": "E4 8QE", "address": "16 North Circular Road, London, LONDON, E4 8QE", "brand": "BP"}, {"location": {"longitude": -0.20749985, "latitude": 51.098261}, "prices": {"E10": 141.9, "B7": 151.9}, "site_id": "gcpfeq0uuyhz", "postcode": "RH11 9AZ", "address": "3 Plenham Place, Crawley, WEST SUSSEX, RH11 9AZ", "brand": "Esso"}, {"location": {"longitude": -0.51173964, "latitude": 51.484646}, "prices": {"E5": 160.9, "SDV": 170.9, "E10": 146.9, "B7": 156.9}, "site_id": "gcpsuk7rg9ek", "postcode": "SL3 0EH", "address": "Colnbrook By-Pass, Sough, Berkshire, SL3 0EH", "brand": "BP"}, {"location": {"longitude": 0.14428392, "latitude": 51.409654}, "prices": {"E5": 157.9, "SDV": 167.9, "E10": 143.9, "B7": 153.9}, "site_id": "u10h7qc4fn1g", "postcode": "DA14 5JA", "address": "Swanley By-Pass, Sidcup, KENT, DA14 5JA", "brand": "BP"}, {"location": {"longitude": -0.4175156, "latitude": 52.583888}, "prices": {"E5": 165.9, "E10": 151.9, "B7": 161.9}, "site_id": "gcrenkxgr5jy", "postcode": "PE8 6LB", "address": "A47, Nene, Peterborough, Cambridgeshire, PE8 6LB", "brand": "BP"}, {"location": {"longitude": -4.176625, "latitude": 50.372863}, "prices": {"E5": 159.9, "SDV": 168.9, "E10": 145.9, "B7": 154.9}, "site_id": "gbvn8fnejw68", "postcode": "PL1 4DP", "address": "Chapel Street, Plymouth, Devon, PL1 4DP", "brand": "Esso"}, {"location": {"longitude": -3.3619766, "latitude": 51.758358}, "prices": {"E5": 160.9, "SDV": 170.9, "E10": 146.9, "B7": 156.9}, "site_id": "gcjw7qrfk30x", "postcode": "CF48 3DA", "address": "New Road, Merthyr Tydfil, Mid Glamorgan, CF48 3DA", "brand": "Esso"}, {"location": {"longitude": -3.4030895, "latitude": 51.393142}, "prices": {"E5": 159.9, "SDV": 169.9, "E10": 145.9, "B7": 155.9}, "site_id": "gcjs6ecfy209", "postcode": "CF62 4JA", "address": "St Athan, Barry, South Glamorgan, CF62 4JA", "brand": "Esso"}, {"location": {"longitude": -4.1506839, "latitude": 50.390111}, "prices": {"E5": 159.9, "SDV": 168.9, "E10": 145.9, "B7": 154.9}, "site_id": "gbvn9t1xdj9b", "postcode": "PL2 3DE", "address": "Outland Road, Plymouth, Devon, PL2 3DE", "brand": "Esso"}, {"location": {"longitude": -2.6151708, "latitude": 51.449851}, "prices": {"E5": 158.9, "E10": 144.9, "B7": 154.9}, "site_id": "gcnhsqptn577", "postcode": "BS8 4RP", "address": "Hotwells Road (North Side), Bristol, Avon, BS8 4RP", "brand": "Esso"}, {"location": {"longitude": -2.8364153, "latitude": 51.588445}, "prices": {"E5": 162.9, "SDV": 174.9, "E10": 147.9, "B7": 159.9}, "site_id": "gcjvrrqs6xpm", "postcode": "NP26 3YL", "address": "M4 Junction 23, Caldicot, Gwent, NP26 3YL", "brand": "BP"}, {"location": {"longitude": -4.1581742, "latitude": 50.385898}, "prices": {"E5": 159.9, "SDV": 168.9, "E10": 145.9, "B7": 154.9}, "site_id": "gbvn9kkp5s0t", "postcode": "PL2 3AA", "address": "Wolseley Road, Plymouth, Devon, PL2 3AA", "brand": "Esso"}, {"location": {"longitude": -3.9098862, "latitude": 51.662847}, "prices": {"E5": 158.9, "SDV": 167.9, "E10": 144.9, "B7": 153.9}, "site_id": "gcjjzhbvvh9w", "postcode": "SA7 9AD", "address": "Samlet Road, Swansea, West Glamorgan, SA7 9AD", "brand": "BP"}, {"location": {"longitude": -0.32457467, "latitude": 51.237534}, "prices": {"E5": 158.9, "SDV": 169.9, "E10": 143.9, "B7": 154.9}, "site_id": "gcpg2xe8kbee", "postcode": "RH4 1JA", "address": "London Road 18, Dorking, SURREY, RH4 1JA", "brand": "Esso"}, {"location": {"longitude": -0.20185828, "latitude": 51.249409}, "prices": {"E5": 161.9, "SDV": 172.9, "E10": 146.9, "B7": 157.9}, "site_id": "gcpge3tj2q78", "postcode": "RH2 9PD", "address": "Reigate Hill, Reigate, SURREY, RH2 9PD", "brand": "Esso"}, {"location": {"longitude": 0.48035804, "latitude": 51.385313}, "prices": {"E5": 159.9, "SDV": 170.9, "E10": 145.9, "B7": 156.9}, "site_id": "u10k6fmv1hsg", "postcode": "ME2 2NY", "address": "CUXTON ROAD, STROOD, KENT, ME2 2NY", "brand": "Esso"}, {"location": {"longitude": 1.0690479, "latitude": 51.272415}, "prices": {"E5": 162.9, "E10": 148.9, "B7": 158.9}, "site_id": "u10g8mf7qwgu", "postcode": "CT1 3RY", "address": "Wincheap, Canterbury, KENT, CT1 3RY", "brand": "Esso"}, {"location": {"longitude": 0.1980932, "latitude": 51.439611}, "prices": {"E5": 159.9, "SDV": 169.9, "E10": 145.9, "B7": 155.9}, "site_id": "u10hss21rykz", "postcode": "DA1 2PZ", "address": "224 Princes Road, Dartford, KENT, DA1 2PZ", "brand": "Esso"}, {"location": {"longitude": -3.3729568, "latitude": 51.681342}, "prices": {"E5": 156.9, "E10": 142.9, "B7": 152.9}, "site_id": "gcjw50rcskmj", "postcode": "CF45 4HT", "address": "Cardiff Road, Mountain Ash, Mid Glamorgan, CF45 4HT", "brand": "Esso"}, {"location": {"longitude": -2.3526173, "latitude": 51.392067}, "prices": {"E5": 157.9, "SDV": 167.9, "E10": 142.9, "B7": 152.9}, "site_id": "gcnk67wukp9k", "postcode": "BA1 6PF", "address": "London Road, Bath, Avon, BA1 6PF", "brand": "Esso"}, {"location": {"longitude": -3.852056, "latitude": 50.719515}, "prices": {"E5": 156.9, "SDV": 166.9, "E10": 141.9, "B7": 151.9}, "site_id": "gcj2835n8dfg", "postcode": "EX20 2QT", "address": "Exeter Road, Okehampton, Devon, EX20 2QT", "brand": "Esso"}, {"location": {"longitude": -2.4305615, "latitude": 51.540688}, "prices": {"E5": 159.9, "SDV": 169.9, "E10": 145.9, "B7": 155.9}, "site_id": "gcnm0wwn7b9g", "postcode": "BS37 4PS", "address": "Station Road, Yate, Bristol, Gloucestershire, BS37 4PS", "brand": "Esso"}, {"location": {"longitude": -0.21406793, "latitude": 51.969932}, "prices": {"E5": 158.9, "E10": 144.9, "B7": 154.9}, "site_id": "gcpzehu4gc7r", "postcode": "SG6 2AZ", "address": "Letchworth Gate, Letchworth Garden City, Hertfordshire, SG6 2AZ", "brand": "Esso"}, {"location": {"longitude": -0.53929674, "latitude": 51.499353}, "prices": {"E5": 158.9, "SDV": 169.9, "E10": 144.9, "B7": 155.9}, "site_id": "gcpsgxpm3rpn", "postcode": "SL3 8BB", "address": "4 Parlaunt Road, Langley, Slough, Berkshire, SL3 8BB", "brand": "BP"}, {"location": {"longitude": -0.13202408, "latitude": 51.390194}, "prices": {"E5": 158.9, "SDV": 167.9, "E10": 144.9, "B7": 153.9}, "site_id": "gcpukgrcede8", "postcode": "CR0 3AB", "address": "702-712 MITCHAM ROAD, LONDON, CR0 3AB", "brand": "BP"}, {"location": {"longitude": 0.10453346, "latitude": 51.532516}, "prices": {"E5": 159.9, "SDV": 169.9, "E10": 144.9, "B7": 154.9}, "site_id": "u10j4mhnev1z", "postcode": "IG11 0AT", "address": "Alfreds Way, Essex, ESSEX, IG11 0AT", "brand": "BP"}, {"location": {"longitude": -1.2664305, "latitude": 52.922083}, "prices": {"E10": 142.9, "B7": 151.9}, "site_id": "gcrj54jv6p2c", "postcode": "NG9 7JD", "address": "Toton Lane, Stapleford, Nottinghamshire, NG9 7JD", "brand": "Esso"}, {"location": {"longitude": -0.02358895, "latitude": 51.809931}, "prices": {"SDV": 177.9, "E10": 147.9, "B7": 157.9}, "site_id": "gcpyxrwydr4u", "postcode": "SG12 7AQ", "address": "Widbury Hill, Ware, Hertfordshire, SG12 7AQ", "brand": "Esso"}, {"location": {"longitude": -3.9998265, "latitude": 51.671079}, "prices": {"SDV": 167.9, "E10": 144.9, "B7": 153.9}, "site_id": "gcjjuyrmv730", "postcode": "SA4 9AQ", "address": "Swansea Road, PENLLERGAER, Swansea, West Glamorgan, SA4 9AQ", "brand": "Esso"}, {"location": {"longitude": 0.55216113, "latitude": 51.15577}, "prices": {"E5": 160.9, "SDV": 178.9, "E10": 145.9, "B7": 155.9}, "site_id": "u107h8d5fq9n", "postcode": "TN12 0EJ", "address": "Cranbrook Road, STAPLEHURST, Tonbridge, Kent, TN12 0EJ", "brand": "Esso"}, {"location": {"longitude": -1.9360332, "latitude": 52.534909}, "prices": {"E5": 160.9, "E10": 146.9, "B7": 158.9}, "site_id": "gcqdggwnp0v4", "postcode": "B43 5EP", "address": "Hamstead Road, GREAT BARR, Birmingham, West Midlands, B43 5EP", "brand": "Esso"}, {"location": {"longitude": -0.01512277, "latitude": 51.252614}, "prices": {"E5": 168.9, "E10": 153.9, "B7": 161.9}, "site_id": "gcpgxdkbpeex", "postcode": "RH8 9LN", "address": "High Street, Oxted, Surrey, RH8 9LN", "brand": "Esso"}, {"location": {"longitude": -2.1920932, "latitude": 51.883857}, "prices": {"E5": 157.9, "E10": 143.9, "B7": 152.9}, "site_id": "gcnrnj5v2eby", "postcode": "GL3 1AE", "address": "Cheltenham Road East, CHURCHDOWN, Gloucester, Gloucestershire, GL3 1AE", "brand": "Esso"}, {"location": {"longitude": -0.08009345, "latitude": 51.664005}, "prices": {"E5": 157.9, "E10": 143.9, "B7": 151.9}, "site_id": "gcpvyjjststf", "postcode": "EN2 0BU", "address": "Lancaster Road, Enfield, Middlesex, EN2 0BU", "brand": "Esso"}, {"location": {"longitude": -2.0253981, "latitude": 53.358177}, "prices": {"E5": 158.9, "E10": 144.9, "B7": 153.9}, "site_id": "gcqx9ct1uv1e", "postcode": "SK12 2HG", "address": "Buxton Road, DISLEY, Stockport, Cheshire, SK12 2HG", "brand": "Esso"}, {"location": {"longitude": -3.1905887, "latitude": 51.482582}, "prices": {"SDV": 166.9, "E10": 142.9, "B7": 152.9}, "site_id": "gcjszkhevbue", "postcode": "CF11 9HA", "address": "Cathedral Road, Cardiff, South Glamorgan, CF11 9HA", "brand": "Esso"}, {"location": {"longitude": -2.1716166, "latitude": 53.420374}, "prices": {"E10": 144.9, "B7": 154.9}, "site_id": "gcqrysfsjxmr", "postcode": "SK4 2QN", "address": "Wellington Road North, Stockport, Cheshire, SK4 2QN", "brand": "Esso"}, {"location": {"longitude": -2.4988582, "latitude": 53.479373}, "prices": {"E5": 158.9, "SDV": 167.9, "E10": 144.9, "B7": 153.9}, "site_id": "gcw0pps7umsq", "postcode": "WA3 5QQ", "address": "Greyhound Roundabout, EAST LANCS ROAD, Warrington, Cheshire, WA3 5QQ", "brand": "BP"}, {"location": {"longitude": -0.89489584, "latitude": 50.843475}, "prices": {"E10": 143.9, "B7": 152.9}, "site_id": "gcp35xu2eqtq", "postcode": "PO18 8RX", "address": "Chichester Road, Nutbourne, West Sussex, PO18 8RX", "brand": "Esso"}, {"location": {"longitude": -2.2727896, "latitude": 52.341209}, "prices": {"E10": 143.9, "B7": 152.9}, "site_id": "gcq3u23j8ht1", "postcode": "DY13 9AN", "address": "Worcester Road, Stourport On Severn, Worcestershire, DY13 9AN", "brand": "Esso"}, {"location": {"longitude": -3.2527058, "latitude": 51.568841}, "prices": {"E5": 157.9, "SDV": 169.9, "E10": 143.9, "B7": 155.9}, "site_id": "gcjtmgz6q2wy", "postcode": "CF15 7UN", "address": "Nant Garw Hill, Cardiff, Mid Glamorgan, CF15 7UN", "brand": "BP"}, {"location": {"longitude": -2.8225241, "latitude": 51.372085}, "prices": {"E5": 158.9, "SDV": 167.9, "E10": 144.9, "B7": 153.9}, "site_id": "gcjurb08n6tr", "postcode": "BS49 5EB", "address": "Weston Road, Congresbury, Bristol, BS49 5EB", "brand": "Esso"}, {"location": {"longitude": -2.2759144, "latitude": 51.035823}, "prices": {"E5": 157.9, "E10": 143.9, "B7": 153.9}, "site_id": "gcn6k4y9pqgn", "postcode": "SP8 4UA", "address": "Chantry Fields, Gillingham, Dorset, SP8 4UA", "brand": "Esso"}, {"location": {"longitude": -2.4100292, "latitude": 51.539135}, "prices": {"SDV": 169.9, "E10": 145.9, "B7": 155.9}, "site_id": "gcnm1nmj4ppg", "postcode": "BS37 4AY", "address": "Link Road, Yate, Bristol, BS37 4AY", "brand": "Esso"}, {"location": {"longitude": -3.0330958, "latitude": 53.820669}, "prices": {"E10": 146.9, "B7": 155.9}, "site_id": "gctf4vz25ezu", "postcode": "FY3 8BZ", "address": "Collingwood Avenue, LAYTON, Blackpool, Lancashire, FY3 8BZ", "brand": "Esso"}, {"location": {"longitude": -2.1669467, "latitude": 53.046041}, "prices": {"E5": 157.9, "SDV": 165.9, "E10": 143.9, "B7": 151.9}, "site_id": "gcqmy8wpd6z2", "postcode": "ST1 6EH", "address": "Leek New Road, SNEYD GREEN, Stoke On Trent, Staffordshire, ST1 6EH", "brand": "Esso"}, {"location": {"longitude": -2.3288424, "latitude": 53.624701}, "prices": {"E5": 156.9, "SDV": 165.9, "E10": 142.9, "B7": 151.9}, "site_id": "gcw35404w0c1", "postcode": "BL8 4DB", "address": "Longsight Road, GREENMOUNT, Bury, Lancashire, BL8 4DB", "brand": "Esso"}, {"location": {"longitude": -1.3134591, "latitude": 53.680379}, "prices": {"E5": 157.9, "E10": 143.9, "B7": 153.9}, "site_id": "gcx16h5wf5vv", "postcode": "WF8 3QF", "address": "CORNER GARAGE, ACKWORTH ROAD, Pontefract, WEST YORKSHIRE, WF8 3QF", "brand": "Esso"}, {"location": {"longitude": -2.0926173, "latitude": 52.571928}, "prices": {"E5": 157.9, "SDV": 166.9, "E10": 143.9, "B7": 152.9}, "site_id": "gcqe06kjwmxm", "postcode": "WV14 6RN", "address": "Wellington Road, Stow Heath, WEST MIDLANDS, WV14 6RN", "brand": "Esso"}, {"location": {"longitude": -2.7490053, "latitude": 50.732461}, "prices": {"E5": 160.9, "E10": 146.9, "B7": 154.9}, "site_id": "gcn097w4p81j", "postcode": "DT6 4AA", "address": "20 East Road, Bridport, DORSET, DT6 4AA", "brand": "Esso"}, {"location": {"longitude": -0.00620213, "latitude": 51.445315}, "prices": {"E5": 158.9, "E10": 144.9, "B7": 154.9}, "site_id": "gcpuxv76xmz3", "postcode": "SE6 1AA", "address": "Brownhill Road, Catford, GREATER LONDON, SE6 1AA", "brand": "Esso"}, {"location": {"longitude": -2.0519966, "latitude": 52.521808}, "prices": {"E5": 156.9, "SDV": 165.9, "E10": 142.9, "B7": 151.9}, "site_id": "gcqdc33c9n8k", "postcode": "DY4 7RB", "address": "Dudley Port, Tipton, WEST MIDLANDS, DY4 7RB", "brand": "Esso"}, {"location": {"longitude": -1.7299507, "latitude": 53.637613}, "prices": {"E5": 157.9, "E10": 143.9, "B7": 151.9}, "site_id": "gcwc0skm9pz2", "postcode": "HD5 8RL", "address": "PENISTONE ROAD, Huddersfield, WEST YORKSHIRE, HD5 8RL", "brand": "Esso"}, {"location": {"longitude": -2.7125722, "latitude": 53.78643}, "prices": {"E5": 156.9, "E10": 142.9, "B7": 152.9}, "site_id": "gcw1fr8b8mr8", "postcode": "PR2 9XL", "address": "275 Garstang Road, Fulwood, LANCASHIRE, PR2 9XL", "brand": "Esso"}, {"location": {"longitude": -0.18466552, "latitude": 51.433233}, "prices": {"E5": 166.9, "E10": 152.9, "B7": 163.9}, "site_id": "gcpueg1s2cx3", "postcode": "SW17 0NP", "address": "666-678 Garratt Lane, Summerstown, LONDON, SW17 0NP", "brand": "Esso"}, {"location": {"longitude": -1.9744853, "latitude": 51.362302}, "prices": {"E5": 155.9, "E10": 141.9, "B7": 151.9}, "site_id": "gcns5n4pp5j1", "postcode": "SN10 2EP", "address": "London Road, Devizes, Wiltshire, SN10 2EP", "brand": "Esso"}, {"location": {"longitude": -2.0019756, "latitude": 51.354311}, "prices": {"SDV": 165.9, "E10": 141.9, "B7": 151.9}, "site_id": "gcns4ky0w96v", "postcode": "SN10 2AA", "address": "The Nursery, NORTHGATE STREET, Devizes, Wiltshire, SN10 2AA", "brand": "Esso"}, {"location": {"longitude": -2.1315588, "latitude": 51.452516}, "prices": {"E5": 158.9, "E10": 144.9, "B7": 153.9}, "site_id": "gcnkxqxueh4t", "postcode": "SN15 2AR", "address": "Bath Road, Chippenham, Wiltshire, SN15 2AR", "brand": "Esso"}, {"location": {"longitude": -2.9867389, "latitude": 51.227295}, "prices": {"E5": 158.9, "E10": 144.9, "B7": 154.9}, "site_id": "gcjgkj9hegyj", "postcode": "TA9 3EJ", "address": "Burnham Road, Highbridge, Somerset, TA9 3EJ", "brand": "Esso"}, {"location": {"longitude": -2.5653015, "latitude": 53.38137}, "prices": {"E5": 158.9, "SDV": 166.9, "E10": 144.9, "B7": 152.9}, "site_id": "gcqpttu100se", "postcode": "WA4 1JJ", "address": "Knutsford Road, LATCHFORD, Warrington, Cheshire, WA4 1JJ", "brand": "Esso"}, {"location": {"longitude": -2.9850442, "latitude": 53.796563}, "prices": {"E5": 160.9, "SDV": 169.9, "E10": 146.9, "B7": 155.9}, "site_id": "gctfh167eqjw", "postcode": "FY4 4XQ", "address": "Preston New Road, MARTON, Blackpool, Lancashire, FY4 4XQ", "brand": "Esso"}, {"location": {"longitude": -2.0470723, "latitude": 52.369195}, "prices": {"E5": 160.9, "E10": 146.9, "B7": 155.9}, "site_id": "gcq9cmt2ev82", "postcode": "B61 0HY", "address": "Birmingham Road, MARLBROOK, Bromsgrove, Worcestershire, B61 0HY", "brand": "Esso"}, {"location": {"longitude": -1.1510439, "latitude": 53.128386}, "prices": {"SDV": 165.9, "E10": 143.9, "B7": 151.9}, "site_id": "gcrnjz9z68zr", "postcode": "NG18 4LE", "address": "Southwell Road West, Mansfield, Nottinghamshire, NG18 4LE", "brand": "Esso"}, {"location": {"longitude": -2.465057, "latitude": 53.09797}, "prices": {"E5": 159.9, "E10": 145.9, "B7": 153.9}, "site_id": "gcqnpfjn0502", "postcode": "CW2 7SJ", "address": "Queens Park, VICTORIA AVENUE, Crewe, Cheshire, CW2 7SJ", "brand": "Esso"}, {"location": {"longitude": -1.921477, "latitude": 52.744936}, "prices": {"E5": 157.9, "SDV": 167.9, "E10": 143.9, "B7": 153.9}, "site_id": "gcqsh3bvd2dy", "postcode": "WS15 1DX", "address": "Main Road, BRERETON, Rugeley, Staffordshire, WS15 1DX", "brand": "Esso"}, {"location": {"longitude": 1.348697, "latitude": 51.310178}, "prices": {"E5": 155.9, "SDV": 165.9, "E10": 141.9, "B7": 151.9}, "site_id": "u10gyswp6ymm", "postcode": "CT13 9NL", "address": "Ramsgate Road, RICHBOROUGH, Sandwich, Kent, CT13 9NL", "brand": "Esso"}, {"location": {"longitude": -4.0845526, "latitude": 51.796723}, "prices": {"E5": 156.9, "SDV": 166.9, "E10": 142.9, "B7": 152.9}, "site_id": "gcjnej39z0bz", "postcode": "SA14 6RD", "address": "Cross Hands, CROSS HANDS, LLANDEILO ROAD, Llanelli, Dyfed, SA14 6RD", "brand": "Esso"}, {"location": {"longitude": -0.53154388, "latitude": 53.193359}, "prices": {"E5": 160.9, "E10": 146.9, "B7": 154.9}, "site_id": "gcrwegscy0u4", "postcode": "LN4 2ND", "address": "Sleaford Road, BRACEBRIDGE HEATH, Lincoln, Lincolnshire, LN4 2ND", "brand": "Esso"}, {"location": {"longitude": -2.614046, "latitude": 53.453839}, "prices": {"E5": 157.9, "SDV": 167.9, "E10": 143.9, "B7": 153.9}, "site_id": "gcw0hdbx0mf1", "postcode": "WA12 8BJ", "address": "Mill Lane, Newton-Le-Willows, Merseyside, WA12 8BJ", "brand": "Esso"}, {"location": {"longitude": -2.6615415, "latitude": 52.937704}, "prices": {"E5": 156.9, "SDV": 166.9, "E10": 142.9, "B7": 152.9}, "site_id": "gcqj5mjbmx6b", "postcode": "SY13 3JT", "address": "Sycamore View, PRESS HEATH, Whitchurch, Shropshire, SY13 3JT", "brand": "Esso"}, {"location": {"longitude": -3.0311534, "latitude": 52.993665}, "prices": {"SDV": 166.9, "E10": 143.9, "B7": 152.9}, "site_id": "gcmv7p0y3p0j", "postcode": "LL14 6YY", "address": "Ruabon By Pass, RUABON, Wrexham, Clwyd, LL14 6YY", "brand": "Esso"}, {"location": {"longitude": 1.0924132, "latitude": 51.292784}, "prices": {"E5": 162.9, "SDV": 180.9, "E10": 148.9, "B7": 158.9}, "site_id": "u10gbce6p5fq", "postcode": "CT2 7PX", "address": "Broad Oak Road, Canterbury, Kent, CT2 7PX", "brand": "Esso"}, {"location": {"longitude": -1.8918569, "latitude": 52.514057}, "prices": {"E5": 155.9, "E10": 141.9, "B7": 152.9}, "site_id": "gcqdszyks99r", "postcode": "B20 3HY", "address": "Aston Lane, PERRY BARR, Birmingham, West Midlands, B20 3HY", "brand": "Esso"}, {"location": {"longitude": 1.1220406, "latitude": 51.095587}, "prices": {"E5": 161.9, "SDV": 169.9, "E10": 146.9, "B7": 154.9}, "site_id": "u10f9t9j37y0", "postcode": "CT18 8XX", "address": "Eurotunnel Uk Terminal, CHERITON, EGRESS ROAD, Folkestone, Kent, CT18 8XX", "brand": "Esso"}, {"location": {"longitude": -3.0465896, "latitude": 53.79525}, "prices": {"E5": 160.9, "SDV": 169.9, "E10": 146.9, "B7": 155.9}, "site_id": "gctf49js136j", "postcode": "FY1 6BF", "address": "Yeadon Way, Blackpool, Lancashire, FY1 6BF", "brand": "Esso"}, {"location": {"longitude": 0.46235888, "latitude": 51.524299}, "prices": {"E5": 157.9, "E10": 143.9, "B7": 151.9}, "site_id": "u10m4e8wv9rz", "postcode": "SS17 9AP", "address": "Church Road, Corringham, Essex, SS17 9AP", "brand": "Esso"}, {"location": {"longitude": -1.081059, "latitude": 52.659345}, "prices": {"SDV": 166.9, "E10": 144.9, "B7": 152.9}, "site_id": "gcr5x6kfcmru", "postcode": "LE4 9UX", "address": "301 Thurmaston Lane, THURMASTON, Leicester, LEICESTERSHIRE, LE4 9UX", "brand": "Esso"}, {"location": {"longitude": -1.997545, "latitude": 52.705723}, "prices": {"E5": 156.9, "E10": 142.9, "B7": 151.9}, "site_id": "gcqefdc3jffk", "postcode": "WS12 1DB", "address": "Uxbridge Street, Hednesford, STAFFORDSHIRE, WS12 1DB", "brand": "Esso"}, {"location": {"longitude": -0.22993843, "latitude": 51.58462}, "prices": {"E5": 159.9, "E10": 144.9, "B7": 154.9}, "site_id": "gcpv6y8w4n1k", "postcode": "NW4 3AQ", "address": "67-73 Watford Way, Hendon, LONDON, NW4 3AQ", "brand": "Esso"}, {"location": {"longitude": -2.5891499, "latitude": 51.418334}, "prices": {"E5": 158.9, "SDV": 168.9, "E10": 144.9, "B7": 154.9}, "site_id": "gcnht06ts2jv", "postcode": "BS4 1UJ", "address": "South Bristol Business Park, ROMAN FARM ROAD, Bristol, BRISTOL, BS4 1UJ", "brand": "Esso"}, {"location": {"longitude": -1.3662882, "latitude": 52.517814}, "prices": {"SDV": 165.9, "E10": 143.9, "B7": 151.9}, "site_id": "gcr4bbt47nje", "postcode": "LE10 2JQ", "address": "Watling Street, Hinckley, LEICESTERSHIRE, LE10 2JQ", "brand": "Esso"}, {"location": {"longitude": -2.4742361, "latitude": 51.41016}, "prices": {"E5": 158.9, "E10": 144.9, "B7": 154.9}, "site_id": "gcnhrwymfh7v", "postcode": "BS31 1TN", "address": "Bath Road, Keynsham, GLOUCESTERSHIRE, BS31 1TN", "brand": "Esso"}, {"location": {"longitude": -0.77861243, "latitude": 50.826542}, "prices": {"SDV": 167.9, "E10": 143.9, "B7": 152.9}, "site_id": "gcp3nk9n140k", "postcode": "PO19 8TH", "address": "A27 By-Pass Eastbound, Chichester, WEST SUSSEX, PO19 8TH", "brand": "Esso"}, {"location": {"longitude": -2.5663308, "latitude": 53.467917}, "prices": {"E10": 144.9, "B7": 153.9}, "site_id": "gcw0jte30njh", "postcode": "WA3 2BE", "address": "East Lancashire Road, Lowton, CHESHIRE, WA3 2BE", "brand": "Esso"}, {"location": {"longitude": -3.0518922, "latitude": 52.861749}, "prices": {"E5": 157.9, "E10": 143.9, "B7": 152.9}, "site_id": "gcmudx1wjb0p", "postcode": "SY11 1QW", "address": "Betrice Street, Oswestry, Shropshire, SY11 1QW", "brand": "BP"}, {"location": {"longitude": -1.792331, "latitude": 54.965841}, "prices": {"E5": 157.9, "SDV": 166.9, "E10": 143.9, "B7": 152.9}, "site_id": "gcy8xnnz5xmj", "postcode": "NE40 4NU", "address": "St Agnes Road, Crawcrook, RYTON, NE40 4NU", "brand": "Esso"}, {"location": {"longitude": -0.19927583, "latitude": 51.58873}, "prices": {"E5": 159.9, "E10": 144.9, "B7": 154.9}, "site_id": "gcpv7rqyhs31", "postcode": "NW11 6AH", "address": "Finchley Road (A598), GOLDERS GREEN, 0, LONDON, NW11 6AH", "brand": "Esso"}, {"location": {"longitude": -1.5265942, "latitude": 54.120973}, "prices": {"E5": 160.9, "E10": 146.9, "B7": 155.9}, "site_id": "gcwgvk2meb8g", "postcode": "HG4 2SD", "address": "Harrogate Road, RIPON, HG4 2SD", "brand": "Esso"}, {"location": {"longitude": 0.02889668, "latitude": 51.633028}, "prices": {"E5": 162.9, "SDV": 181.9, "E10": 147.9, "B7": 158.9}, "site_id": "u10j8xt01q4c", "postcode": "IG9 5UA", "address": "Epping New Road, Buckhurst Hill, Essex, IG9 5UA", "brand": "Esso"}, {"location": {"longitude": -1.81766, "latitude": 53.81573}, "prices": {"E5": 155.9, "SDV": 165.9, "E10": 141.9, "B7": 151.9}, "site_id": "gcwdnsu7m7nm", "postcode": "BD9 6NT", "address": "Howarth Road, Bradford, West Yorkshire, BD9 6NT", "brand": "Shell"}, {"location": {"longitude": -0.03040116, "latitude": 50.86788}, "prices": {"E10": 145.9, "B7": 156.9}, "site_id": "gcpcrk1ygs57", "postcode": "BN7 3JR", "address": "Brighton Road, Lewes, EAST SUSSEX, BN7 3JR", "brand": "Esso"}, {"location": {"longitude": -1.05997, "latitude": 53.76965}, "prices": {"E5": 155.9, "SDV": 165.9, "E10": 141.9, "B7": 151.9}, "site_id": "gcx1zuknuvjp", "postcode": "YO8 8SQ", "address": "BAWTRY ROAD, SELBY, NORTH YORKSHIRE, YO8 8SQ", "brand": "Esso"}, {"location": {"longitude": -1.2470912, "latitude": 51.403983}, "prices": {"E5": 159.9, "E10": 145.9, "B7": 154.9}, "site_id": "gcph7tgcusvq", "postcode": "RG18 4LQ", "address": "London Road, LONDON ROAD, Thatcham, BERKSHIRE, RG18 4LQ", "brand": "Esso"}, {"location": {"longitude": -0.32473017, "latitude": 51.280566}, "prices": {"E5": 158.9, "E10": 143.9, "B7": 154.9}, "site_id": "gcpg8x7dcnre", "postcode": "KT22 8LY", "address": "By-Pass-Road (A24), GIVONS GROVE, Leatherhead, SURREY, KT22 8LY", "brand": "Esso"}, {"location": {"longitude": 0.31304557, "latitude": 51.144709}, "prices": {"E10": 145.9, "B7": 155.9}, "site_id": "u104znegw2z8", "postcode": "TN2 4NG", "address": "High Street (A228), PEMBURY, Tunbridge Wells, KENT, TN2 4NG", "brand": "Esso"}, {"location": {"longitude": -1.3364238, "latitude": 50.914444}, "prices": {"E5": 157.9, "E10": 143.9, "B7": 152.9}, "site_id": "gcp19sdy5h60", "postcode": "SO18 5TQ", "address": "Thornhill Park Road(A334) , Thornhil Park, Southampton, Hampshire, SO18 5TQ", "brand": "Esso"}, {"location": {"longitude": -2.4712369, "latitude": 52.708759}, "prices": {"E5": 158.9, "SDV": 167.9, "E10": 144.9, "B7": 153.9}, "site_id": "gcq5zg2db0b4", "postcode": "TF1 6SZ", "address": "Trench Lock, TRENCH, Telford, Shropshire, TF1 6SZ", "brand": "Esso"}, {"location": {"longitude": -1.4929144, "latitude": 53.490612}, "prices": {"E5": 156.9, "SDV": 167.9, "E10": 142.9, "B7": 153.9}, "site_id": "gcwbq18vksf3", "postcode": "S75 3DL", "address": "Maple Road, Tankersley, SOUTH YORKSHIRE, S75 3DL", "brand": "Shell"}, {"location": {"longitude": -0.65873, "latitude": 51.79523}, "prices": {"E5": 159.9, "SDV": 168.9, "E10": 144.9, "B7": 153.9}, "site_id": "gcpw9j0346xm", "postcode": "HP23 5ED", "address": "Brook Street, Tring, Hertfordshire, HP23 5ED", "brand": "Shell"}, {"location": {"longitude": -0.44650606, "latitude": 51.481399}, "prices": {"E5": 164.9, "E10": 149.9, "B7": 159.9}, "site_id": "gcpsvgfugskg", "postcode": "UB3 5AY", "address": "Bath Road, Sipson Road (A4), HEATHROW, Harlington, LONDON, UB3 5AY", "brand": "Esso"}, {"location": {"longitude": -1.5448191, "latitude": 50.960862}, "prices": {"E5": 161.9, "E10": 146.9, "B7": 158.9}, "site_id": "gcncuv5he15q", "postcode": "SO51 6GF", "address": "Ower Roundabout, OWNER, Romsey, HAMPSHIRE, SO51 6GF", "brand": "Esso"}, {"location": {"longitude": -0.04309698, "latitude": 50.864721}, "prices": {"E5": 159.9, "E10": 145.9, "B7": 156.9}, "site_id": "gcpcr58s7z0x", "postcode": "BN7 3JJ", "address": "A27 Brighton Road, Lewes, EAST SUSSEX, BN7 3JJ", "brand": "Esso"}, {"location": {"longitude": -2.4529, "latitude": 53.5382}, "prices": {"E5": 156.9, "SDV": 166.9, "E10": 144.9, "B7": 154.9}, "site_id": "gcw284mfe7c4", "postcode": "BL5 1EE", "address": "Bridgewater Avenue, Bolton, Lancashire, BL5 1EE", "brand": "Esso"}, {"location": {"longitude": -1.6915874, "latitude": 55.401472}, "prices": {"E5": 158.9, "SDV": 167.9, "E10": 144.9, "B7": 153.9}, "site_id": "gcyg1t80znvj", "postcode": "NE66 2HA", "address": "Willowtree Industrial Estate, Alnwick, NORTHUMBERLAND, NE66 2HA", "brand": "Esso"}, {"location": {"longitude": -0.40797, "latitude": 53.83456}, "prices": {"E5": 157.9, "SDV": 168.9, "E10": 143.9, "B7": 154.9}, "site_id": "gcxdq8qcj97e", "postcode": "HU17 0XL", "address": "EASTFIELDS ROAD , BEVERLEY, East Yorkshire, HU17 0XL", "brand": "Shell"}, {"location": {"longitude": -1.0684558, "latitude": 50.83953}, "prices": {"E5": 158.9, "E10": 144.9, "B7": 154.9}, "site_id": "gcp1pxjcxpm9", "postcode": "PO6 2SJ", "address": "Portsmouth Road, Cosham, HAMPSHIRE, PO6 2SJ", "brand": "Esso"}, {"location": {"longitude": -1.1651287, "latitude": 50.822879}, "prices": {"E5": 158.9, "E10": 144.9, "B7": 154.9}, "site_id": "gcp1jkp8dx34", "postcode": "PO13 0XL", "address": "Fareham Road (A32) , BRIDGEMARY, Gosport, HAMPSHIRE, PO13 0XL", "brand": "Esso"}, {"location": {"longitude": -1.4901427, "latitude": 53.784131}, "prices": {"E5": 158.9, "SDV": 167.9, "E10": 144.9, "B7": 153.9}, "site_id": "gcwcyp4gm0tn", "postcode": "LS9 0PS", "address": "AIRE VALLEY ROAD, LEEDS, YORKSHIRE, LS9 0PS", "brand": "Esso"}, {"location": {"longitude": -3.12483, "latitude": 52.670048}, "prices": {"E5": 155.9, "SDV": 165.9, "E10": 141.9, "B7": 151.9}, "site_id": "gcmg8uk960tf", "postcode": "SY21 8SL", "address": "BUTTINGTON CROSS ENTERPRISE PARK, BUTTING CROSS, BUTTING, WELSHPOOL, SHROPSHIRE, SY21 8SL", "brand": "Shell"}, {"location": {"longitude": -2.52727, "latitude": 50.94945}, "prices": {"E10": 144.9, "B7": 154.9}, "site_id": "gcn1y7pdn3fg", "postcode": "DT9 4BQ", "address": "YEOVIL ROAD, SHERBORNE, DORSET, DT9 4BQ", "brand": "BP"}, {"location": {"longitude": -0.48672, "latitude": 51.03218}, "prices": {"E5": 155.9, "SDV": 165.9, "E10": 141.9, "B7": 151.9}, "site_id": "gcpdkfjefxg7", "postcode": "RH14 9LY", "address": "BILLINGSHURST BUSINESS PARK, STANE STREET, BILLINGSHURST, WEST SUSSEX, RH14 9LY", "brand": "Shell"}, {"location": {"longitude": -2.8679, "latitude": 53.477941}, "prices": {"E5": 153.9, "SDV": 163.9, "E10": 139.9, "B7": 149.9}, "site_id": "gctbnxret4dz", "postcode": "L33 7AN", "address": "UNIT 5B ACADEMY BUSINESS PARK, COUNTY ROAD, KNOWSLEY INDUSTRIAL PARK, LIVERPOOL , MERSEYSIDE, L33 7AN", "brand": "Esso"}], "last_updated": "08/03/2024 10:55:02"}